[{"name": "Adamowizna. B\u0142. Matki Teresy z Kalkuty", "sundays": ["08:00", "10:00", "12:00", "18:00"], "weekdays": ["18:00"], "location": {"lat": 0, "lon": 0}, "address": "Adamowizna, ul. Promienna 7, 05-825 Grodzisk Mazowiecki", "id": "article-10794"}, {"name": "Babice. WNIEBOWZI\u0118CIA NMP", "sundays": ["7:30", "9:30", "11:30", "16:00", "18:00"], "weekdays": ["8:00", "18:00"], "location": {"lat": 52.25099, "lon": 20.84202}, "address": "ul. Rynek 17, 05-082 Stare Babice", "id": "article-9649"}, {"name": "Baniocha. NMP Kr\u00f3lowej Pokoju", "sundays": ["7:30", "9:00", "10:30", "12:00", "17:00"], "weekdays": ["7:30", "17:00"], "location": {"lat": 52.02027, "lon": 21.12211}, "address": "ul.Willowa 2, 05-532 Baniocha", "id": "article-9650"}, {"name": "Belsk. \u015awi\u0119tej Tr\u00f3jcy", "sundays": ["9:00", "12:00", "16:00"], "weekdays": ["8:00", "16:00"], "location": {"lat": 51.82635735, "lon": 20.8090851294357}, "address": "ul. Modrzewiowa 4, 05-622 Belsk Du\u017cy", "id": "article-9651"}, {"name": "Blizne. Objawienia Pa\u0144skiego", "sundays": ["9:00", "10:30", "12:00", "18:00"], "weekdays": ["8:00", "18:00"], "location": {"lat": 52.2408995, "lon": 20.8846861}, "address": "ul. \u0141aszczy\u0144skiego 1, 05-082 Blizne", "id": "article-9652"}, {"name": "B\u0142\u0119d\u00f3w. \u015aw. PROKOPA OPATA", "sundays": ["7:00", "9:00", "11:00"], "weekdays": [], "location": {"lat": 51.77484165, "lon": 20.6987720203507}, "address": "Stary Rynek 13, 05-620 B\u0142\u0119d\u00f3w", "id": "article-9653"}, {"name": "B\u0142onie. NARODZENIA PA\u0143SKIEGO", "sundays": ["8:00", "10:00", "11:30", "13:00", "18:00"], "weekdays": ["7:00", "18:00"], "location": {"lat": 52.1987129, "lon": 20.6210193714643}, "address": "ul. Powsta\u0144c\u00f3w 8a, 05-870 B\u0142onie", "id": "article-9654"}, {"name": "B\u0142onie. \u015awi\u0119tej Tr\u00f3jcy", "sundays": ["7:00", "8:30", "10:00", "11:30", "13:00", "18:00"], "weekdays": ["6:30", "7:30", "18:00"], "location": {"lat": 0, "lon": 0}, "address": "ul. Jana Paw\u0142a II 5, 05-870 B\u0142onie", "id": "article-9655"}, {"name": "Boglewice. Przemienienia Pa\u0144skiego", "sundays": ["9:00", "11:00", "17:00"], "weekdays": ["17:00"], "location": {"lat": 51.80835, "lon": 20.99819}, "address": "Boglewice 57, 05-604 Jasieniec", "id": "article-9656"}, {"name": "Borz\u0119cin. \u015aw. WINCENTEGO FERRERIUSZA", "sundays": ["8:30", "10:00", "11:30", "16:00"], "weekdays": ["17:30"], "location": {"lat": 0, "lon": 0}, "address": "ul. Warszawska 822, 05\u2013083 Borz\u0119cin Du\u017cy", "id": "article-9657"}, {"name": "Bramki. \u015aw. Maksymiliana Kolbego", "sundays": ["7:00", "9:00", "12:00", "13:00"], "weekdays": ["7:00", "18:00"], "location": {"lat": 0, "lon": 0}, "address": "ul. Ko\u015bcielna 7, 05-870 B\u0142onie", "id": "article-9658"}, {"name": "Brwin\u00f3w. \u015aw. FLORIANA", "sundays": ["7:00", "9:00", "10:30", "11:45", "13:00", "15:00", "18:00"], "weekdays": ["7:00", "8:00", "18:00"], "location": {"lat": 52.1437785, "lon": 20.7152577940833}, "address": "ul. Biskupicka 2, 05-840 Brwin\u00f3w", "id": "article-9659"}, {"name": "Burak\u00f3w. B\u0142. Marceliny Darowskiej", "sundays": ["8:00", "10:00", "12:00", "18:00"], "weekdays": ["6:45", "18:00"], "location": {"lat": 0, "lon": 0}, "address": "\u0141omianki-Burak\u00f3w, ul. Sobieskiego 2a, 05-092 \u0141omianki", "id": "article-9660"}, {"name": "Chylice. \u015aw. URSZULI LED\u00d3CHOWSKIEJ", "sundays": ["8:00", "10:30", "12:00", "18:00"], "weekdays": ["9:00", "18:00"], "location": {"lat": 0, "lon": 0}, "address": "ul. Dworska 5, 05-510 Konstancin-Jeziorna", "id": "article-9661"}, {"name": "Chyn\u00f3w. \u015awi\u0119tej Tr\u00f3jcy", "sundays": ["8:00", "9:30", "11:00", "12:30", "17:00"], "weekdays": [], "location": {"lat": 0, "lon": 0}, "address": "Chyn\u00f3w 47, 05-650 Chyn\u00f3w k. Gr\u00f3jca", "id": "article-9662"}, {"name": "Cz\u0105stk\u00f3w. Matki Bo\u017cej Kr\u00f3lowej Polski", "sundays": ["9:00", "11:00", "17:00"], "weekdays": ["17:00"], "location": {"lat": 0, "lon": 0}, "address": "ul. Kard. S. Wyszy\u0144skiego 4, 05-152 Czosn\u00f3w, Cz\u0105stk\u00f3w Mazowiecki", "id": "article-9663"}, {"name": "Czersk. PRZEMIENIENIA PA\u0143SKIEGO", "sundays": ["9:00", "11:00", "18:00"], "weekdays": ["8:00", "18:00"], "location": {"lat": 51.95886, "lon": 21.23315}, "address": "Plac Tysi\u0105clecia 14, Czersk, 05-530 G\u00f3ra Kalwaria", "id": "article-9664"}, {"name": "D\u0105browa Le\u015bna. \u015aw. Marka Ewangelisty", "sundays": ["9:00", "11:00", "18:00"], "weekdays": ["18:00", "8:00"], "location": {"lat": 52.32633605, "lon": 20.8862659658486}, "address": "ul. \u017bywiczna 2, 05-092 \u0141omianki", "id": "article-9666"}, {"name": "Dawidy. \u015aW. MATEUSZA EWANGELISTY", "sundays": ["8:00", "9:30", "11:30"], "weekdays": ["8:00", "17:00"], "location": {"lat": 0, "lon": 0}, "address": "Dawidy Bankowe, ul. Miklaszewskiego 98, 05-090 Raszyn", "id": "article-9665"}, {"name": "Drwalew. \u015awi\u0119tych Aposto\u0142\u00f3w Piotra i Paw\u0142a", "sundays": ["9:00", "11:45", "17:00"], "weekdays": ["17:00"], "location": {"lat": 0, "lon": 0}, "address": "ul. Gr\u00f3jecka 20, 05-651 Drwalew k. Gr\u00f3jca", "id": "article-9667"}, {"name": "Dziekan\u00f3w Le\u015bny. Matki Bo\u017cej Kr\u00f3lowej Rodzin", "sundays": ["8:30", "10:00", "11:30", "18:00"], "weekdays": ["18:00"], "location": {"lat": 52.35063, "lon": 20.84497}, "address": "ul. Mi\u0142a 52, 05-092 \u0141omianki", "id": "article-10079"}, {"name": "G\u0142osk\u00f3w. MB WSPOMO\u017bENIA WIERNYCH", "sundays": ["8:00", "9:30", "10:30", "12:00", "18:00"], "weekdays": ["7:30", "18:00"], "location": {"lat": 52.0378163, "lon": 20.9371153}, "address": "ul. Millenium 13, 05-503 G\u0142osk\u00f3w", "id": "article-9669"}, {"name": "G\u00f3ra Kalwaria. NIEPOKALANEGO POCZ\u0118CIA NMP", "sundays": ["7:00", "8:30", "10:00", "11:30", "12:45", "19:00"], "weekdays": ["7:00", "8:00", "9:00", "16:30", "18:00"], "location": {"lat": 0, "lon": 0}, "address": "ul. Ks. Sajny 2, 05-530 G\u00f3ra Kalwaria", "id": "article-9671"}, {"name": "G\u00f3rki Kampinoskie. NAWIEDZENIA NMP", "sundays": ["9:00", "10:30"], "weekdays": ["17:30"], "location": {"lat": 0, "lon": 0}, "address": "G\u00f3rki Kampinoskie 69, 05-156 G\u00f3rki Kampinoskie", "id": "article-9672"}, {"name": "Goszczyn. \u015aw. Micha\u0142a Archanio\u0142a", "sundays": ["8:30", "10:00", "12:00"], "weekdays": ["7:00", "17:00"], "location": {"lat": 51.73214, "lon": 20.85206}, "address": "Warszawska 25, 05-610 Goszczyn", "id": "article-9670"}, {"name": "Grodzisk Mazowiecki Matki Bo\u017cej Nieustaj\u0105cej Pomocy", "sundays": ["8:00", "10:00", "12:00", "18:00"], "weekdays": ["7:00", "18:00"], "location": {"lat": 52.10208175, "lon": 20.6496395627028}, "address": "ul. Piaskowa 21, 05-825 Grodzisk Mazowiecki", "id": "article-9674"}, {"name": "Grodzisk Mazowiecki. MI\u0141OSIERDZIA BO\u017bEGO", "sundays": ["8:00", "10:00", "11:30", "13:00", "18:00"], "weekdays": ["7:00", "18:00"], "location": {"lat": 0, "lon": 0}, "address": "ul. Orzeszkowej 10, 05-827 Grodzisk Mazowiecki", "id": "article-9675"}, {"name": "Grodzisk Mazowiecki. PRZEMIENIENIA PA\u0143SKIEGO", "sundays": ["8:00", "10:00", "12:00", "18:00"], "weekdays": ["7:15", "18:00"], "location": {"lat": 52.11844105, "lon": 20.6120592960193}, "address": "ul. \u0141\u0105czna 1, 05-825 Grodzisk Mazowiecki", "id": "article-9676"}, {"name": "Grodzisk Mazowiecki. \u015aw. ANNY", "sundays": ["7:00", "8:45", "10:00", "11:30", "11:30", "12:45", "18:30", "20:00"], "weekdays": ["7:00", "8:00", "17:30", "18:30"], "location": {"lat": 0, "lon": 0}, "address": "Plac Zygmunta Starego 2a, 05-825 Grodzisk Mazowiecki", "id": "article-9673"}, {"name": "Gr\u00f3jec. MI\u0141OSIERDZIA BO\u017bEGO", "sundays": ["7:30", "9:00", "10:30", "12:00", "17:00"], "weekdays": ["7:00", "17:00"], "location": {"lat": 0, "lon": 0}, "address": "ul. Jana Paw\u0142a II 24, 05-600 Gr\u00f3jec", "id": "article-9678"}, {"name": "Gr\u00f3jec. \u015aw. MIKO\u0141AJA BISKUPA", "sundays": ["6:30", "8:00", "9:30", "11:00", "12:30", "17:00", "19:00"], "weekdays": ["6:30", "7:30", "18:00"], "location": {"lat": 51.86834, "lon": 20.86264}, "address": "ul. Worowska 1, 05-600 Gr\u00f3jec", "id": "article-9677"}, {"name": "Izabelin. \u015aw. FRANCISZKA z ASY\u017bU", "sundays": ["8:30", "10:00", "11:30", "12:45", "18:00"], "weekdays": ["8:00", "18:00"], "location": {"lat": 0, "lon": 0}, "address": "ul. 3 Maja 83, 05\u2013080 Izabelin", "id": "article-9680"}, {"name": "Izdebno. \u015aw. MICHA\u0141A ARCHANIO\u0141A", "sundays": ["9:00", "11:30"], "weekdays": ["18:00"], "location": {"lat": 0, "lon": 0}, "address": "ul. Ozi\u0119b\u0142owskiego 12, 05-825 Izdebno Ko\u015bcielne", "id": "article-9681"}, {"name": "Jasieniec. \u015aw. ROCHA", "sundays": ["8:00", "9:30", "12:00", "17:00"], "weekdays": ["7:00", "17:00"], "location": {"lat": 51.8214901, "lon": 20.9431603476715}, "address": "ul. Warecka 37, 05-604 Jasieniec", "id": "article-9682"}, {"name": "Jazgarzew. \u015aw. ROCHA", "sundays": ["7:30", "9:15", "11:45", "18:00"], "weekdays": ["18:00"], "location": {"lat": 52.0424622, "lon": 20.9936839}, "address": "ul. G\u0142\u00f3wna 2, 05-502 Jazgarzew", "id": "article-9683"}, {"name": "Jezi\u00f3rka. Przemienienia Pa\u0144skiego", "sundays": ["9:00", "11:30", "16:00"], "weekdays": ["7:00", "17:00"], "location": {"lat": 0, "lon": 0}, "address": "Jezi\u00f3rka 16, 05-652 Pniewy k. Gr\u00f3jca", "id": "article-9684"}, {"name": "J\u00f3zefos\u0142aw. \u015aw. J\u00f3zefa Opiekuna Pracy", "sundays": ["8:00", "9:30", "11:00", "12:30", "18:00"], "weekdays": ["8:00", "17:00"], "location": {"lat": 0, "lon": 0}, "address": "J\u00f3zefos\u0142aw, ul. Ogrodowa 3, 05-500 Piaseczno", "id": "article-9685"}, {"name": "Kamionka. \u015awi\u0119tej Rodziny", "sundays": ["7:30", "9:00", "10:30", "12:00", "16:00", "18:00"], "weekdays": ["17:00"], "location": {"lat": 0, "lon": 0}, "address": "Kamionka, \u015awierkowa 9/13, 05-502 Piaseczno", "id": "article-9686"}, {"name": "Kampinos. WNIEBOWZI\u0118CIA NMP", "sundays": ["8:00", "10:00", "12:00"], "weekdays": ["8:00", "17:00"], "location": {"lat": 52.26879, "lon": 20.46141}, "address": "ul. Chopina 22, 05-085 Kampinos", "id": "article-9687"}, {"name": "Kaski. \u015aWI\u0118TYCH APOSTO\u0141\u00d3W PIOTRA i PAW\u0141A", "sundays": [], "weekdays": [], "location": {"lat": 0, "lon": 0}, "address": "Kaski 22a, ul. Kr\u00f3lewska 27, 96-314 Baran\u00f3w", "id": "article-9688"}, {"name": "Kazu\u0144. Matki Bo\u017cej Szkaplerznej", "sundays": ["7:30", "8:45", "10:30", "12:00"], "weekdays": ["17:00"], "location": {"lat": 0, "lon": 0}, "address": "Kazu\u0144 Bielany, ul. Ko\u015bcielna 1, 05-152 Czosn\u00f3w", "id": "article-9689"}, {"name": "K\u0119dzier\u00f3wka. \u015aw. JANA CHRZCICIELA", "sundays": ["9:00", "10:30", "12:00", "18:00"], "weekdays": ["18:00"], "location": {"lat": 51.98151, "lon": 21.03977}, "address": "K\u0119dzier\u00f3wka 1, 05-540 K\u0119dzier\u00f3wka", "id": "article-9690"}, {"name": "Komor\u00f3w. NARODZENIA NMP", "sundays": ["8:00", "9:30", "9:30", "11:00", "11:00", "12:30", "18:00"], "weekdays": ["7:00", "18:00"], "location": {"lat": 0, "lon": 0}, "address": "ul. 3-go Maja 9, 05-806 Komor\u00f3w", "id": "article-9691"}, {"name": "Konary. \u015aWI\u0118TEJ TR\u00d3JCY", "sundays": ["9:00", "12:00"], "weekdays": ["7:00", "8:00"], "location": {"lat": 51.8760265, "lon": 21.2361842749064}, "address": "Konary 60a, 05-660 Warka", "id": "article-9692"}, {"name": "Konstancin-Jeziorna. MATKI BO\u017bEJ ANIELSKIEJ w Skolimowie", "sundays": ["7:30", "9:00", "10:30", "11:00", "12:00", "18:00"], "weekdays": ["7:00", "18:00"], "location": {"lat": 52.07862, "lon": 21.10391}, "address": "ul. \u015arodkowa 15, 05-510 Konstancin-Jeziorna", "id": "article-9696"}, {"name": "Konstancin-Jeziorna. \u015aw. J\u00d3ZEFA OBLUBIE\u0143CA NMP (Mirk\u00f3w)", "sundays": ["8:30", "10:30", "12:00", "18:00"], "weekdays": ["7:00", "18:00"], "location": {"lat": 0, "lon": 0}, "address": "ul. Jaworskiego 1, 05-520 Konstancin-Jeziorna", "id": "article-9693"}, {"name": "Konstancin-Jeziorna. \u015aWI\u0118TEJ BO\u017bEJ RODZICIELKI MARYI w Klarysewie", "sundays": ["8:00", "10:00", "12:00", "18:00"], "weekdays": ["18:00"], "location": {"lat": 52.0983, "lon": 21.11367}, "address": "ul S\u0142oneczna 20, 05-520 Konstancin-Jeziorna", "id": "article-9694"}, {"name": "Konstancin-Jeziorna. WNIEBOWZI\u0118CIA NMP", "sundays": ["7:00", "8:30", "10:00", "11:30", "13:00", "18:30"], "weekdays": ["7:00", "18:30", "17:30"], "location": {"lat": 0, "lon": 0}, "address": "al. J\u00f3zefa Pi\u0142sudskiego 54, 05-510 Konstancin-Jeziorna", "id": "article-9695"}, {"name": "Kostowiec. NMP WSPOMO\u017bENIA WIERNYCH", "sundays": ["7:30", "9:30", "12:00"], "weekdays": ["7:00", "7:30", "18:00"], "location": {"lat": 0, "lon": 0}, "address": "ul. ks. Stanis\u0142awa Prze\u017adzieckiego 2, 05-831 M\u0142och\u00f3w", "id": "article-9697"}, {"name": "Ksi\u0105\u017cenice. \u015aw. Jana Marii Vianneya", "sundays": ["8:00", "10:00", "12:00"], "weekdays": ["18:00", "8:00"], "location": {"lat": 0, "lon": 0}, "address": "Al. E. Marylskiego 5, Ksi\u0105\u017cenice, 05-825 Grodzisk Mazowiecki", "id": "article-10795"}, {"name": "Kukl\u00f3wka. MATKI BO\u017bEJ CZ\u0118STOCHOWSKIEJ", "sundays": ["8:00", "10:00", "11:30", "18:00"], "weekdays": ["7:00", "18:00"], "location": {"lat": 0, "lon": 0}, "address": "ul. J\u00f3zefa Che\u0142mo\u0144skiego 6, Kukl\u00f3wka Zarzeczna, 96-325 Radziejowice", "id": "article-9698"}, {"name": "Laski Warszawskie. MATKI BO\u017bEJ KR\u00d3LOWEJ MEKSYKU", "sundays": ["9:00", "10:30", "12:00", "19:00"], "weekdays": ["7:00", "18:30"], "location": {"lat": 0, "lon": 0}, "address": "ul. 3-go Maja 40/42, Laski Warszawskie, 05-080 Izabelin", "id": "article-9699"}, {"name": "Leoncin. \u015aw. Ma\u0142gorzaty", "sundays": ["8:45", "12:00", "17:00"], "weekdays": ["17:30", "18:00"], "location": {"lat": 52.3946497, "lon": 20.54051445}, "address": "pl. Romana Kobendzy 5, 05-155 Leoncin", "id": "article-9700"}, {"name": "Le\u015bna Polana. MATKI BO\u017bEJ KR\u00d3LOWEJ POLSKI", "sundays": ["9:00", "11:30", "18:00", "16:00"], "weekdays": ["8:00", "18:00", "17:00"], "location": {"lat": 0, "lon": 0}, "address": "Le\u015bna Polana al. Prymasa Tysi\u0105clecia 3, 05-504 Z\u0142otok\u0142os", "id": "article-9703"}, {"name": "Leszno. NARODZENIA \u015aW. JANA CHRZCICIELA", "sundays": ["7:30", "9:00", "10:30", "12:00", "18:00", "10:30"], "weekdays": ["8:00", "18:00"], "location": {"lat": 0, "lon": 0}, "address": "ul. Warszawska 1, 05-084 Leszno k. B\u0142onia", "id": "article-9701"}, {"name": "Lesznowola. B\u0142. HONORATA KO\u0179MI\u0143SKIEGO", "sundays": ["9:00", "11:00", "16:00"], "weekdays": ["19:00", "17:00"], "location": {"lat": 51.91278, "lon": 20.90296}, "address": "ul. Piaseczy\u0144ska 7, Lesznowola, 05-600 Gr\u00f3jec", "id": "article-9702"}, {"name": "Lewiczyn. \u015aw. WOJCIECHA BM i \u015bw. MARCINA", "sundays": ["9:00", "11:30", "17:00", "16:00"], "weekdays": ["7:30", "8:00", "16:00", "16:30", "17:00", "17:30", "18:00"], "location": {"lat": 51.80210245, "lon": 20.8608771}, "address": "Lewiczyn 1, 05-622 Belsk Du\u017cy", "id": "article-9704"}, {"name": "Lipie. \u015aWI\u0118TEJ TR\u00d3JCY", "sundays": ["9:00", "11:30", "16:00"], "weekdays": ["18:00", "16:00"], "location": {"lat": 51.82458, "lon": 20.7066}, "address": "Lipie 33, 05-620 B\u0142\u0119d\u00f3w", "id": "article-9705"}, {"name": "Lipk\u00f3w. \u015aw. ROCHA", "sundays": ["8:30", "10:00", "11:30", "13:00", "18:30", "17:00"], "weekdays": ["18:00"], "location": {"lat": 52.2779006, "lon": 20.8040169}, "address": "ul. Jakubowicza 120, Lipk\u00f3w, 05-080 Izabelin", "id": "article-9706"}, {"name": "\u0141a\u017aniew. \u015aw. ANTONIEGO z PADWY", "sundays": ["7:30", "10:00", "12:00", "17:00"], "weekdays": ["17:00", "18:00"], "location": {"lat": 0, "lon": 0}, "address": "\u0141a\u017aniew 12, al. Ksi\u0119\u017cy Orionist\u00f3w 1, 05-870 B\u0142onie", "id": "article-9707"}, {"name": "\u0141\u0119czeszyce. \u015aw. JANA CHRZCICIELA", "sundays": ["9:00", "11:00", "18:00", "17:00"], "weekdays": ["18:00", "17:00"], "location": {"lat": 51.7772207, "lon": 20.7685144}, "address": "\u0141\u0119czeszyce 101, 05-622 Belsk Du\u017cy", "id": "article-9708"}, {"name": "\u0141omianki. \u015aw. MA\u0141GORZATY DM", "sundays": ["7:00", "8:30", "10:00", "10:00", "11:30", "13:00", "18:00"], "weekdays": ["7:00", "7:30", "17:00", "18:00"], "location": {"lat": 52.3410098, "lon": 20.884648}, "address": "ul. Warszawska 121, 05-092 \u0141omianki", "id": "article-9709"}, {"name": "\u0141omna. \u015aw. MIKO\u0141AJA BISKUPA", "sundays": ["7:30", "9:00", "11:00", "12:30", "18:00", "17:00"], "weekdays": ["6:00", "18:00", "17:00"], "location": {"lat": 0, "lon": 0}, "address": "\u0141omna, ul. Trakt Tr\u0119bickich 1, 05-152  Czosn\u00f3w", "id": "article-9710"}, {"name": "Magdalenka. \u015aw. MARII MAGDALENY", "sundays": ["8:30", "8:00", "10:00", "9:30", "11:00", "12:30", "18:00"], "weekdays": ["7:00", "9:00", "18:00"], "location": {"lat": 0, "lon": 0}, "address": "ul. Ks. H. S\u0142ojewskiego 19, 05-552 W\u00f3lka Kosowska", "id": "article-9711"}, {"name": "Michalczew. \u015aWIETEJ RODZINY", "sundays": ["7:30", "9:30", "12:00"], "weekdays": [], "location": {"lat": 51.8425009, "lon": 21.1141619}, "address": "Michalczew 54, 05-660 Warka", "id": "article-17086"}, {"name": "Micha\u0142owice-Opacz. WNIEBOWZI\u0118CIA NMP", "sundays": ["8:00", "9:30", "11:00", "12:30", "18:00"], "weekdays": ["7:00", "18:00"], "location": {"lat": 52.16998, "lon": 20.89211}, "address": "ul. Szkolna 11, 05-816 Micha\u0142owice", "id": "article-9714"}, {"name": "Micha\u0142owice. WSZYSTKICH \u015aWI\u0118TYCH", "sundays": ["9:00", "11:00"], "weekdays": [], "location": {"lat": 51.63703285, "lon": 20.7245664125102}, "address": "Micha\u0142owice 4, 05-640 Mogielnica", "id": "article-9713"}, {"name": "Milan\u00f3wek. MATKI BO\u017bEJ BOLESNEJ", "sundays": ["7:30", "9:00", "11:00", "12:30", "18:00"], "weekdays": ["7:00", "18:00"], "location": {"lat": 0, "lon": 0}, "address": "ul. Szkolna 7, 05-822 Milan\u00f3wek", "id": "article-9716"}, {"name": "Milan\u00f3wek. \u015aw. JADWIGI \u015aL\u0104SKIEJ", "sundays": ["7:00", "8:30", "10:00", "11:15", "12:30", "18:00"], "weekdays": ["7:00", "8:00", "18:00"], "location": {"lat": 52.12674, "lon": 20.6632}, "address": "ul. Ko\u015bciuszki 41, 05-822 Milan\u00f3wek", "id": "article-9715"}, {"name": "M\u0142och\u00f3w. \u015aw. MICHA\u0141A ARCHANIO\u0141A", "sundays": ["7:00", "9:00", "10:30", "12:00", "18:00"], "weekdays": ["18:00"], "location": {"lat": 52.0477589, "lon": 20.7845437}, "address": "ul. Markiewicza 10, 05-831 M\u0142och\u00f3w", "id": "article-9717"}, {"name": "Mogielnica. \u015aw. FLORIANA M", "sundays": ["7:30", "9:00", "10:15", "12:00", "18:00", "17:00"], "weekdays": ["7:00", "18:00", "17:00"], "location": {"lat": 51.6930703, "lon": 20.7210516}, "address": "Plac Po\u015bwi\u0119tne 12, 05-640 Mogielnica", "id": "article-9718"}, {"name": "Mrok\u00f3w. \u015aw. STANIS\u0141AWA KOSTKI", "sundays": ["8:00", "10:00", "12:00"], "weekdays": ["18:00", "17:00"], "location": {"lat": 0, "lon": 0}, "address": "Mrok\u00f3w, ul. Rejonowa 40, 05-552 W\u00f3lka Kosowska", "id": "article-9719"}, {"name": "Nadarzyn. \u015aw. KLEMENSA PM", "sundays": ["8:00", "9:00", "10:30", "12:00", "17:00", "20:00"], "weekdays": ["7:00", "18:00"], "location": {"lat": 0, "lon": 0}, "address": "ul. Ko\u015bcielna 1, 05-830 Nadarzyn", "id": "article-9720"}, {"name": "Niepokalan\u00f3w. NIEPOKALANEGO POCZ\u0118CIA NMP", "sundays": ["6:00", "7:00", "8:30", "10:00", "11:30", "13:00", "16:00", "18:00", "19:00"], "weekdays": ["6:00", "7:00", "8:00", "9:00", "10:00", "11:00", "18:00"], "location": {"lat": 0, "lon": 0}, "address": "Niepokalan\u00f3w, 96-515 Teresin k. Sochaczewa", "id": "article-9721"}, {"name": "Nowa Wie\u015b. \u015aw. IZYDORA ORACZA", "sundays": ["9:00", "13:00"], "weekdays": [], "location": {"lat": 51.8072297, "lon": 21.0794331}, "address": "Nowa Wie\u015b 59, 05-660 Warka", "id": "article-9722"}, {"name": "Ojrzan\u00f3w. ZWIASTOWANIA NMP", "sundays": ["9:00", "10:30", "12:00"], "weekdays": [], "location": {"lat": 0, "lon": 0}, "address": "\u017belech\u00f3w-Ojrzan\u00f3w, ul. Ko\u015bcielna 10, 96-321 \u017babia Wola", "id": "article-9723"}, {"name": "O\u0142tarzew. NMP KR\u00d3LOWEJ APOSTO\u0141\u00d3W", "sundays": ["7:30", "9:00", "10:30", "12:00", "18:00"], "weekdays": ["7:00", "18:30"], "location": {"lat": 0, "lon": 0}, "address": "ul. Kili\u0144skiego 20, 05-850 O\u017car\u00f3w Mazowiecki", "id": "article-9724"}, {"name": "Ostro\u0142\u0119ka n. Pilic\u0105. OFIAROWANIA NMP", "sundays": ["9:00", "12:00"], "weekdays": ["7:00", "9:00", "11:00", "12:30", "18:00"], "location": {"lat": 0, "lon": 0}, "address": "Ostro\u0142\u0119ka n. Pilic\u0105 40, 05-660 Warka", "id": "article-9725"}, {"name": "Otr\u0119busy. NMP MATKI KO\u015aCIO\u0141A", "sundays": ["7:00", "18:00"], "weekdays": [], "location": {"lat": 52.131225, "lon": 20.7632805}, "address": "ul. Sadowa 14, 05-805 Otr\u0119busy", "id": "article-9726"}, {"name": "O\u017car\u00f3w. MI\u0141OSIERDZIA BO\u017bEGO", "sundays": [], "weekdays": [], "location": {"lat": 52.20959925, "lon": 20.7986381486343}, "address": "ul. Pozna\u0144ska 183, 05-850 O\u017car\u00f3w Mazowiecki", "id": "article-9727"}, {"name": "Paw\u0142owice. \u015aw. BART\u0141OMIEJA APOSTO\u0141A", "sundays": ["9:00", "11:30"], "weekdays": ["8:00", "18:00"], "location": {"lat": 52.2275877, "lon": 20.4689833}, "address": "Paw\u0142owice 15, 96-515 Teresin", "id": "article-9728"}, {"name": "P\u0119cice. \u015aWI\u0118TYCH APOSTO\u0141\u00d3W PIOTRA i PAW\u0141A", "sundays": ["9:00", "11:00", "16:00"], "weekdays": [], "location": {"lat": 0, "lon": 0}, "address": "P\u0119cice, ul. Parkowa 4, 05-806 Komor\u00f3w", "id": "article-9729"}, {"name": "Piaseczno. MATKI BO\u017bEJ R\u00d3\u017bA\u0143COWEJ", "sundays": ["7:00", "8:00", "10:00", "11:30", "13:00", "18:00", "19:30", "16:00"], "weekdays": ["7:00", "7:30", "18:00"], "location": {"lat": 52.0760626, "lon": 21.0149578952559}, "address": "ul. S\u0142owicza 1, 05-500 Piaseczno", "id": "article-9731"}, {"name": "Piaseczno. \u015aw. ANNY", "sundays": ["7:00", "8:30", "10:00", "11:30", "11:30", "13:00", "18:30", "20:00"], "weekdays": ["6:30", "8:00", "18:30"], "location": {"lat": 0, "lon": 0}, "address": "Pl. Pi\u0142sudskiego 10, 05-500 Piaseczno", "id": "article-9730"}, {"name": "Piast\u00f3w. CHRYSTUSA KR\u00d3LA WSZECH\u015aWIATA", "sundays": ["8:00", "10:00", "11:30", "13:00", "18:00", "19:00"], "weekdays": ["7:00", "18:00"], "location": {"lat": 52.18992, "lon": 20.82839}, "address": "ul. Ogi\u0144skiego 41, 05-820 Piast\u00f3w", "id": "article-9732"}, {"name": "Piast\u00f3w. MATKI BO\u017bEJ CZ\u0118STOCHOWSKIEJ", "sundays": ["7:00", "8:30", "10:00", "11:30", "13:00", "18:00", "19:00"], "weekdays": ["7:00", "8:00", "18:00"], "location": {"lat": 52.18803, "lon": 20.84387}, "address": "Aleja Krakowska 17, 05-820 Piast\u00f3w", "id": "article-9733"}, {"name": "Piast\u00f3w. \u015aw. MICHA\u0141A ARCHANIO\u0141A", "sundays": ["7:00", "8:30", "10:00", "11:30", "13:00", "18:00"], "weekdays": ["7:00", "18:00"], "location": {"lat": 52.1761083, "lon": 20.8517746538779}, "address": "ul. Elizy Orzeszkowej 23, 05-820 Piast\u00f3w", "id": "article-9734"}, {"name": "Pieczyska. NARODZENIA NMP", "sundays": ["8:00", "9:30", "11:30"], "weekdays": ["7:00", "18:00", "17:00"], "location": {"lat": 0, "lon": 0}, "address": "Pieczyska 23, 05-651 Drwalew", "id": "article-9735"}, {"name": "P\u0142ochocin. \u015aw. WOJCIECHA BM", "sundays": ["8:00", "10:00", "12:00", "18:00"], "weekdays": ["8:00", "18:00"], "location": {"lat": 52.20161, "lon": 20.70171}, "address": "ul. \u0141\u0105kowa 7, 05-860 P\u0142ochocin", "id": "article-9736"}, {"name": "Podkowa Le\u015bna. \u015aw. KRZYSZTOFA", "sundays": ["7:30", "9:30", "11:00", "13:00", "18:00"], "weekdays": ["7:00", "18:00"], "location": {"lat": 0, "lon": 0}, "address": "ul. Jana Paw\u0142a II 7, 05-807 Podkowa Le\u015bna", "id": "article-9737"}, {"name": "Pra\u017cm\u00f3w. \u015aw. FRANCISZKA z ASY\u017bU", "sundays": ["8:00", "9:30", "11:30", "18:00"], "weekdays": ["18:00", "17:00"], "location": {"lat": 0, "lon": 0}, "address": "ul. F. Ryxa 35, 05-505 Pra\u017cm\u00f3w", "id": "article-9738"}, {"name": "Promna. \u015aw. MARII MAGDALENY", "sundays": ["8:00", "10:00", "12:00", "16:00"], "weekdays": ["18:00"], "location": {"lat": 51.67919645, "lon": 20.95873165}, "address": "ul. Warecka 7, 26-803 Promna", "id": "article-9739"}, {"name": "Pruszk\u00f3w. MATKI BO\u017bEJ NIEUSTAJ\u0104CEJ POMOCY", "sundays": ["8:00", "10:30", "12:00", "18:00"], "weekdays": ["7:00", "18:00"], "location": {"lat": 0, "lon": 0}, "address": "pl. Stefana Kard. Wyszy\u0144skiego 1, 05-804 Pruszk\u00f3w", "id": "article-9743"}, {"name": "Pruszk\u00f3w. NIEPOKALANEGO POCZ\u0118CIA NMP", "sundays": ["7:00", "8:30", "10:00", "11:15", "12:30", "18:00"], "weekdays": ["7:00", "18:00"], "location": {"lat": 0, "lon": 0}, "address": "ul. 3-go maja 124, 05-800 Pruszk\u00f3w", "id": "article-9744"}, {"name": "Pruszk\u00f3w. \u015aw. EDWARDA w Tworkach", "sundays": ["8:00", "9:30", "11:00", "12:30", "18:00", "20:00"], "weekdays": ["7:30", "18:00"], "location": {"lat": 52.1732791, "lon": 20.820885}, "address": "ul.Partyzant\u00f3w 22, 05-802 Pruszk\u00f3w", "id": "article-9740"}, {"name": "Pruszk\u00f3w. \u015aw. J\u00d3ZEFA OBLUBIE\u0143CA NMP na Osiedlu Staszica", "sundays": ["7:00", "8:30", "10:00", "11:30", "13:00", "18:00", "19:30"], "weekdays": ["7:00", "7:30", "8:00", "18:00", "19:00"], "location": {"lat": 52.15619985, "lon": 20.7905839532774}, "address": "ul. Helenowska 3, 05-804 Pruszk\u00f3w", "id": "article-9741"}, {"name": "Pruszk\u00f3w. \u015aw. KAZIMIERZA", "sundays": ["6:00", "7:30", "9:00", "10:30", "12:00", "13:15", "18:00"], "weekdays": ["6:30", "7:00", "8:00", "17:30", "18:00"], "location": {"lat": 52.16233375, "lon": 20.8096014504201}, "address": "ul. Kraszewskiego 23, 05-800 Pruszk\u00f3w", "id": "article-9742"}, {"name": "Przybyszew. \u015aWI\u0118TYCH APOSTO\u0141\u00d3W PIOTRA i PAW\u0141A", "sundays": ["8:00", "9:30", "12:00"], "weekdays": ["7:00", "17:00"], "location": {"lat": 51.66310895, "lon": 20.8524730359649}, "address": "Rynek 1, 26-813 Przybyszew", "id": "article-9745"}, {"name": "Przypki. NAJ\u015aWI\u0118TSZEGO SERCA PANA JEZUSA", "sundays": ["9:00"], "weekdays": ["8:00", "18:00"], "location": {"lat": 0, "lon": 0}, "address": "Przypki, ul. Ko\u015bcielna 13, 05-555 Tarczyn", "id": "article-9746"}, {"name": "Raszyn \u015bw. Szczepana", "sundays": ["7:00", "8:30", "10:00", "10:00", "11:30", "13:00", "18:00", "20:30"], "weekdays": ["6:30", "8:00", "18:00"], "location": {"lat": 52.15054465, "lon": 20.9158913279989}, "address": "Al. Krakowska 6, 05-090 Raszyn", "id": "article-9749"}, {"name": "Rembert\u00f3w Gr\u00f3jecki. \u015aw. JANA CHRZCICIELA", "sundays": ["7:30", "9:45", "12:00", "16:00"], "weekdays": ["7:00", "18:00"], "location": {"lat": 0, "lon": 0}, "address": "Ul. Ko\u015bcielna 4, Rembert\u00f3w, 05-555 Tarczyn", "id": "article-9750"}, {"name": "Rokitno. WNIEBOWZI\u0118CIA NMP", "sundays": ["9:00", "11:30", "16:30"], "weekdays": ["16:30"], "location": {"lat": 52.1877369, "lon": 20.6488797}, "address": "Rokitno 23, 05-870 B\u0142onie", "id": "article-9751"}, {"name": "Rososz. NARODZENIA NMP", "sundays": ["9:00", "11:00"], "weekdays": [], "location": {"lat": 0, "lon": 0}, "address": "Rososz 1, 05-650 Chyn\u00f3w k. Gr\u00f3jca", "id": "article-9752"}, {"name": "Rybie. \u015aw. BART\u0141OMIEJA APOSTO\u0141A", "sundays": ["7:00", "8:30", "10:30", "12:00", "17:00"], "weekdays": ["7:00", "18:00"], "location": {"lat": 52.15452, "lon": 20.94044}, "address": "ul. Polna 39, 05-090 Rybie", "id": "article-9753"}, {"name": "Secymin. NARODZENIA NMP", "sundays": ["9:00", "11:30", "18:00", "17:00"], "weekdays": ["18:00", "17:00"], "location": {"lat": 0, "lon": 0}, "address": "Secymin-Nowiny 21, 05-155 Leoncin", "id": "article-9754"}, {"name": "S\u0119kocin. \u015aw. FAUSTYNY KOWALSKIEJ", "sundays": ["9:00", "11:00", "17:00"], "weekdays": ["17:00"], "location": {"lat": 0, "lon": 0}, "address": "S\u0119kocin Stary, ul. Starowiejska 25, 05-090 Raszyn", "id": "article-9755"}, {"name": "S\u0142omczyn. \u015aw. ZYGMUNTA", "sundays": ["8:45", "10:30", "12:00", "18:00"], "weekdays": ["7:30", "18:00"], "location": {"lat": 52.05979, "lon": 21.16149}, "address": "ul. Wi\u015blana 85, 05-507 S\u0142omczyn", "id": "article-9756"}, {"name": "Sobik\u00f3w. \u015aw. STANIS\u0141AWA BM", "sundays": ["8:30", "10:00", "12:00", "13:15"], "weekdays": ["18:00", "17:00"], "location": {"lat": 51.9614647, "lon": 21.1343957543982}, "address": "Sobik\u00f3w 15, 05-530 G\u00f3ra Kalwaria", "id": "article-9757"}, {"name": "Stara Iwiczna. ZES\u0141ANIA DUCHA \u015aWI\u0118TEGO", "sundays": ["7:00", "8:30", "10:00", "11:30", "13:00", "16:00", "18:00"], "weekdays": ["18:00", "19:00"], "location": {"lat": 0, "lon": 0}, "address": "Stara Iwiczna, ul. S\u0142oneczna 7/9, 05-500 Piaseczno", "id": "article-9679"}, {"name": "\u015aw. Alojzego Orione w \u015ar\u00f3dmie\u015bciu", "sundays": ["7:00", "8:30", "10:00", "11:30", "13:00", "18:00"], "weekdays": ["6:15", "7:00", "8:00", "18:00"], "location": {"lat": 52.22512575, "lon": 20.9971417642774}, "address": "ul. Lindleya 12, 02-005 Warszawa", "id": "article-9593"}, {"name": "\u015aw. El\u017cbiety w Powsinie", "sundays": ["7:00", "9:00", "10:30", "12:00", "18:00"], "weekdays": ["7:00", "18:00"], "location": {"lat": 52.12333475, "lon": 21.102173}, "address": "ul. Przycz\u00f3\u0142kowa 29, 02-968 Warszawa", "id": "article-9575"}, {"name": "\u015aw. Grzegorza Wielkiego na Szcz\u0119\u015bliwicach", "sundays": ["7:00", "8:30", "11:00", "12:30", "18:00"], "weekdays": ["8:00", "18:00"], "location": {"lat": 52.2023926, "lon": 20.9562739}, "address": "ul. W\u0142odarzewska 54, 02-384 Warszawa", "id": "article-9577"}, {"name": "\u015aw. Ignacego Loyoli na Plac\u00f3wce", "sundays": ["8:30", "10:00", "11:30", "13:00", "18:00"], "weekdays": ["18:00"], "location": {"lat": 52.3143985, "lon": 20.9211388}, "address": "ul.W\u00f3ycickiego 14a, 01-938 Warszawa", "id": "article-9578"}, {"name": "\u015aw. Jozafata na Pow\u0105zkach", "sundays": ["8:00", "9:30", "11:00", "12:30", "17:00"], "weekdays": ["7:30", "18:00"], "location": {"lat": 52.26190825, "lon": 20.9510809465854}, "address": "ul. Pow\u0105zkowska 90, 01-728 Warszawa", "id": "article-9583"}, {"name": "\u015aw. Krzysztofa na Piaskach", "sundays": ["9:00", "11:00", "12:15", "17:00"], "weekdays": ["8:00", "18:00"], "location": {"lat": 0, "lon": 0}, "address": "ul. Niedzielskiego 4, 01\u2013875 Warszawa", "id": "article-9590"}, {"name": "\u015aw. Stefana Kr\u00f3la na Sielcach", "sundays": ["7:00", "8:30", "10:00", "11:30", "13:00", "17:00", "19:00"], "weekdays": ["6:30", "7:00", "8:00", "17:30", "18:00"], "location": {"lat": 52.2104217, "lon": 21.04705}, "address": "ul. Czerniakowska 137, 00-720 Warszawa", "id": "article-9613"}, {"name": "\u015aw. Tadeusza Aposto\u0142a na Sadybie", "sundays": ["7:30", "9:30", "11:00", "11:00", "12:30", "18:00", "20:00"], "weekdays": ["7:00", "7:30", "8:00", "17:30", "18:00"], "location": {"lat": 52.18825115, "lon": 21.0672109176518}, "address": "ul. Goraszewska 16, 02-910 Warszawa", "id": "article-9615"}, {"name": "\u015awi\u0119tej Rodziny w Ursusie na Osiedlu Chrobrego", "sundays": ["7:30", "9:00", "10:30", "12:00", "18:00", "19:30"], "weekdays": ["8:00", "18:00"], "location": {"lat": 52.1980819, "lon": 20.90187475}, "address": "ul. Zapustna 43, 02-495 Warszawa", "id": "article-9609"}, {"name": "\u015awi\u0119tych Rafa\u0142a i Alberta na Rudzie", "sundays": ["7:30", "9:00", "10:30", "12:00", "18:00", "20:00"], "weekdays": ["7:00", "9:00", "18:00", "19:00", "18:30"], "location": {"lat": 52.28181065, "lon": 20.9805227352384}, "address": "ul. Gwia\u017adzista 17, 01-651 Warszawa", "id": "article-9608"}, {"name": "Tarczyn. \u015aw. MIKO\u0141AJA BM", "sundays": ["7:30", "9:30", "11:00", "12:30", "18:00"], "weekdays": ["7:00", "8:00", "18:00"], "location": {"lat": 0, "lon": 0}, "address": "ul. Ks. Czes\u0142awa Oszkiela 1, 05-555 Tarczyn", "id": "article-9758"}, {"name": "Warka. MATKI BO\u017bEJ SZKAPLERZNEJ", "sundays": ["7:00", "9:00", "10:30", "12:00", "18:00"], "weekdays": ["7:00", "18:00"], "location": {"lat": 51.7847306, "lon": 21.194215972943}, "address": "ul. Franciszka\u0144ska 22, 05-660 Warka", "id": "article-9759"}, {"name": "Warka. \u015aw. MIKO\u0141AJA BISKUPA", "sundays": ["7:00", "9:30", "11:30", "13:00", "17:00"], "weekdays": ["7:00", "7:30", "17:00"], "location": {"lat": 51.7827382, "lon": 21.1909194378695}, "address": "ul. Farna 10, 05-660 Warka", "id": "article-9760"}, {"name": "Warszawa. Bazylika archikatedralna \u015bw. Jana Chrzciciela", "sundays": ["8:00", "9:30", "11:00", "12:30", "18:00", "19:00", "21:00"], "weekdays": ["7:00", "7:30", "8:00", "19:00"], "location": {"lat": 52.24887995, "lon": 21.0136761427289}, "address": "ul. \u015awi\u0119toja\u0144ska 8, 00-288 Warszawa", "id": "article-9557"}, {"name": "Warszawa. B\u0142. Edmunda Bojanowskiego na Wolicy", "sundays": ["8:00", "10:00", "11:15", "12:30", "18:00"], "weekdays": ["6:45", "18:00"], "location": {"lat": 52.15278185, "lon": 21.06149005}, "address": "ul. Kokosowa 12, 02-797 Warszawa", "id": "article-9573"}, {"name": "Warszawa. B\u0142. Edwarda Detkensa", "sundays": ["11:00", "13:00"], "weekdays": ["12:00"], "location": {"lat": 52.29619365, "lon": 20.9591764995916}, "address": "ul. Dewajtis 3, 01-815 Warszawa", "id": "article-9574"}, {"name": "Warszawa. B\u0142. W\u0142adys\u0142awa z Gielniowa w Natolinie", "sundays": ["13:15", "18:00", "20:00"], "weekdays": ["7:00", "7:30", "18:00", "19:00", "18:00"], "location": {"lat": 52.1373565, "lon": 21.0657662473481}, "address": "ul. Przy Ba\u017cantarni 3, 02-793 Warszawa", "id": "article-9621"}, {"name": "Warszawa. Bogurodzicy Maryi na Jelonkach P\u00f3\u0142nocnych", "sundays": ["7:00", "8:30", "10:00", "11:30", "13:00", "18:00", "19:30"], "weekdays": ["7:00", "8:00", "18:00", "19:00"], "location": {"lat": 52.2343396, "lon": 20.9117061135826}, "address": "ul. Powsta\u0144c\u00f3w \u015al\u0105skich 67d, 01-355 Warszawa", "id": "article-9630"}, {"name": "Warszawa. Dobrego Pasterza na Ulrychowie", "sundays": ["7:00", "8:30", "10:00", "11:30", "13:00", "17:00", "19:00"], "weekdays": ["6:30", "7:00", "8:00", "9:00", "18:00", "19:00"], "location": {"lat": 52.2364791, "lon": 20.938502074826}, "address": "ul. Szczeci\u0144skiego 5, 01-113 Warszawa", "id": "article-9569"}, {"name": "Warszawa. Dzieci\u0105tka Jezus na \u017boliborzu", "sundays": ["8:00", "9:15", "10:30", "11:45", "13:00", "18:00"], "weekdays": ["7:00", "8:00", "7:30", "18:00"], "location": {"lat": 0, "lon": 0}, "address": "ul. Czarnieckiego 15, 01-548 Warszawa", "id": "article-9572"}, {"name": "Warszawa. Matki Bo\u017cej Anielskiej na Wierzbnie", "sundays": ["7:00", "8:00", "9:30", "11:00", "12:30", "17:00", "18:30", "20:00"], "weekdays": ["7:00", "8:00", "9:00", "18:30"], "location": {"lat": 52.19064855, "lon": 21.0140046369085}, "address": "ul. Modzelewskiego 98a, 02-679 Warszawa", "id": "article-9631"}, {"name": "Warszawa. Matki Bo\u017cej Cz\u0119stochowskiej na Powi\u015blu", "sundays": ["7:00", "9:00", "10:00", "11:30", "13:00", "12:00", "17:00"], "weekdays": ["7:00", "7:30", "18:00"], "location": {"lat": 52.2261664, "lon": 21.0405747666859}, "address": "ul. Zag\u00f3rna 5, 00-441 Warszawa", "id": "article-9632"}, {"name": "Warszawa. Matki Bo\u017cej Fatimskiej w Ursusie", "sundays": ["7:30", "9:00", "10:30", "12:00", "18:00", "19:30"], "weekdays": ["7:00", "7:30", "8:00", "18:00"], "location": {"lat": 52.1924927, "lon": 20.862212825996}, "address": "ul. Zag\u0142oby 37, 02-495 Warszawa", "id": "article-12157"}, {"name": "Warszawa. Matki Bo\u017cej Kr\u00f3lowej Anio\u0142\u00f3w na Bemowie", "sundays": ["7:00", "8:30", "10:00", "10:00", "11:30", "11:30", "13:00", "13:00", "18:00", "20:00"], "weekdays": ["6:15", "7:00", "8:00", "18:00"], "location": {"lat": 0, "lon": 0}, "address": "ul. Ks. Bronis\u0142awa Markiewicza 1, 01-493 Warszawa", "id": "article-9634"}, {"name": "Warszawa. Matki Bo\u017cej Kr\u00f3lowej Pokoju na M\u0142ocinach", "sundays": ["9:00", "10:30", "12:00", "18:00", "19:30"], "weekdays": ["7:00", "18:00"], "location": {"lat": 52.3084131, "lon": 20.9233643}, "address": "ul. Dzier\u017coniowska 7, 01-985 Warszawa", "id": "article-9635"}, {"name": "Warszawa. Matki Bo\u017cej Kr\u00f3lowej Polski na Marymoncie", "sundays": ["7:00", "8:30", "10:00", "11:30", "13:00", "18:00", "20:00"], "weekdays": ["7:00", "8:00", "12:00", "18:00"], "location": {"lat": 52.2744272, "lon": 20.9739127729172}, "address": "ul. Gda\u0144ska 6a, 01-691 Warszawa", "id": "article-9636"}, {"name": "Warszawa. Matki Bo\u017cej Ostrobramskiej na Boernerowie", "sundays": ["7:30", "9:00", "10:30", "12:00", "13:00", "18:00"], "weekdays": ["7:00", "18:00"], "location": {"lat": 0, "lon": 0}, "address": "ul. Gen. Kaliskiego 49, 01-476 Warszawa", "id": "article-9637"}, {"name": "Warszawa. Matki Bo\u017cej Salety\u0144skiej w Starych W\u0142ochach", "sundays": ["7:00", "8:00", "9:30", "11:00", "12:30", "18:00", "19:30"], "weekdays": ["7:00", "18:00"], "location": {"lat": 52.20325875, "lon": 20.9246496281712}, "address": "ul. Popularna 46, 02-473 Warszawa", "id": "article-9638"}, {"name": "Warszawa. Matki Bo\u017cej Wspomo\u017cycielki Wiernych na Chomicz\u00f3wce", "sundays": ["7:00", "8:30", "10:00", "11:30", "13:00", "18:00"], "weekdays": ["6:30", "8:00", "18:00", "19:15", "6:30", "8:00", "18:00"], "location": {"lat": 52.2723481, "lon": 20.9296080108688}, "address": "ul. J. Conrada 7, 01-922 Warszawa", "id": "article-9639"}, {"name": "Warszawa. Mi\u0142osierdzia Bo\u017cego i \u015bw. Faustyny na Muranowie", "sundays": ["8:00", "9:30", "11:00", "12:30", "16:00", "18:00"], "weekdays": ["7:00", "15:00", "18:00"], "location": {"lat": 52.2402329, "lon": 20.9837100579964}, "address": "ul. \u017bytnia 1, 01-014 Warszawa", "id": "article-9601"}, {"name": "Warszawa. Naj\u015bwi\u0119tszego Cia\u0142a i Krwi Chrystusa na Nied\u017awiadku", "sundays": ["7:30", "9:00", "10:30", "12:00", "18:00"], "weekdays": ["8:00", "15:00", "18:00"], "location": {"lat": 52.1956945, "lon": 20.8745216790864}, "address": "ul. Wojciechowskiego 32, 02-495 Warszawa", "id": "article-9568"}, {"name": "Warszawa. Naj\u015bwi\u0119tszego Serca Pana Jezusa w Ursusie", "sundays": ["8:00", "10:00", "12:00", "18:00"], "weekdays": ["7:00", "18:00"], "location": {"lat": 52.1887654, "lon": 20.8730692}, "address": "ul. Piastowska 6a, 02-495 Warszawa", "id": "article-9610"}, {"name": "Warszawa. Naj\u015bwi\u0119tszego Zbawiciela w \u015ar\u00f3dmie\u015bciu", "sundays": ["7:00", "8:30", "10:00", "10:30", "11:30", "13:00", "15:00", "18:30", "20:30"], "weekdays": ["6:30", "7:00", "7:30", "8:00", "9:00", "15:00", "17:00", "18:30"], "location": {"lat": 52.21873, "lon": 21.0179768}, "address": "ul. Marsza\u0142kowska 37, 00-639 Warszawa", "id": "article-9625"}, {"name": "Warszawa. Narodzenia NMP na Lesznie", "sundays": ["7:30", "9:00", "10:30", "12:00", "13:30", "18:00"], "weekdays": ["7:00", "8:00", "18:00"], "location": {"lat": 52.2428473, "lon": 20.9949757406557}, "address": "al. Solidarno\u015bci 80, 00-145 Warszawa", "id": "article-9640"}, {"name": "Warszawa. Nawiedzenia NMP na Nowym Mie\u015bcie", "sundays": ["8:30", "9:30", "11:00", "12:00", "18:30"], "weekdays": ["7:00", "15:00", "18:30"], "location": {"lat": 52.25429865, "lon": 21.0090265701896}, "address": "ul. Przyrynek 2, 00-219 Warszawa", "id": "article-9641"}, {"name": "Warszawa. Niepokalanego Pocz\u0119cia NMP na Wrzecionie", "sundays": ["7:00", "8:30", "10:00", "11:30", "13:00", "18:00", "20:00"], "weekdays": ["6:30", "7:15", "18:00"], "location": {"lat": 52.29146205, "lon": 20.9395224731072}, "address": "ul. Przy Agorze 9, 01-960 Warszawa", "id": "article-9642"}, {"name": "Warszawa. NMP Kr\u00f3lowej \u015awiata na Ochocie", "sundays": ["7:00", "8:00", "9:15", "10:30", "11:15", "12:00", "13:15", "18:30", "20:00"], "weekdays": ["6:15", "7:00", "8:00", "17:30", "18:30"], "location": {"lat": 52.2109506, "lon": 20.9705357925703}, "address": "ul. Opaczewska 20, 02-372 Warszawa", "id": "article-9643"}, {"name": "Warszawa. NMP Kr\u00f3lowej Wyznawc\u00f3w na Siekierkach", "sundays": ["8:00", "9:30", "11:00", "13:00", "18:00"], "weekdays": ["7:30", "18:00"], "location": {"lat": 52.20778355, "lon": 21.0830250580426}, "address": "ul. Gwintowa 3, 00-704 Warszawa", "id": "article-9644"}, {"name": "Warszawa. NMP Matki Ko\u015bcio\u0142a na Ksawerowie", "sundays": ["7:00", "8:30", "10:00", "11:30", "13:00", "19:00", "21:00"], "weekdays": ["7:00", "9:00", "19:00"], "location": {"lat": 52.18382645, "lon": 21.0186954541991}, "address": "ul. Domaniewska 20, 02-672 Warszawa", "id": "article-9645"}, {"name": "Warszawa. NMP Matki Mi\u0142osierdzia na Stegnach", "sundays": ["7:00", "8:30", "10:00", "11:30", "11:30", "13:00", "18:00", "19:30"], "weekdays": ["6:30", "7:00", "8:30", "18:00"], "location": {"lat": 52.1855461, "lon": 21.0624569}, "address": "ul. \u015aw. Bonifacego 9, 02-914 Warszawa", "id": "article-9646"}, {"name": "Warszawa. NMP Matki Zbawiciela na Wygl\u0119dowie", "sundays": ["7:00", "8:30", "10:00", "11:30", "13:00", "18:30", "20:00"], "weekdays": ["7:00", "8:00", "18:30"], "location": {"lat": 52.1943462, "lon": 20.9927274995726}, "address": "ul. Olimpijska 82/84, 02-636 Warszawa", "id": "article-9647"}, {"name": "Warszawa. Ofiarowania Pa\u0144skiego na Wy\u017cynach", "sundays": ["7:00", "8:00", "9:30", "11:00", "12:30", "18:00", "20:00"], "weekdays": ["7:00", "8:00", "18:00", "19:00"], "location": {"lat": 52.1376943, "lon": 21.0476966010925}, "address": "ul. Stryje\u0144skich 21, 02-791 Warszawa", "id": "article-9600"}, {"name": "Warszawa. Opatrzno\u015bci Bo\u017cej na Rakowcu", "sundays": ["7:00", "8:00", "9:15", "10:30", "12:00", "13:15", "18:00", "19:00"], "weekdays": ["6:30", "7:00", "8:00", "18:00", "19:00"], "location": {"lat": 52.20459375, "lon": 20.9741992646823}, "address": "ul. Dickensa 5, 02-107 Warszawa", "id": "article-9606"}, {"name": "Warszawa. Opatrzno\u015bci Bo\u017cej w Wilanowie", "sundays": ["8:00", "9:00", "10:30", "12:00", "19:00", "20:30"], "weekdays": ["7:00", "12:00", "18:00"], "location": {"lat": 0, "lon": 0}, "address": "ul. Ks. Prymasa Augusta Hlonda 1, 02-972 Warszawa", "id": "article-9602"}, {"name": "Warszawa. Podwy\u017cszenia Krzy\u017ca \u015awi\u0119tego na Jelonkach", "sundays": ["7:00", "8:30", "10:00", "11:30", "13:00", "18:00", "19:15"], "weekdays": ["6:30", "7:15", "18:00"], "location": {"lat": 52.22486325, "lon": 20.9104604051473}, "address": "ul. S\u0142omiana 2/4, 01-384 Warszawa", "id": "article-9605"}, {"name": "Warszawa. Pos\u0142ania Uczni\u00f3w Pa\u0144skich na K\u0119pie Zawadowskiej", "sundays": ["9:00", "11:00"], "weekdays": ["18:00"], "location": {"lat": 52.1446623, "lon": 21.142025}, "address": "ul. Bruzdowa 11, 02-994 Warszawa", "id": "article-9607"}, {"name": "Warszawa. \u015aw. Aleksandra na Trakcie Kr\u00f3lewskim", "sundays": ["7:00", "8:30", "10:00", "10:00", "10:00", "11:00", "12:00", "11:30", "13:00", "13:00", "16:00", "18:00", "19:00"], "weekdays": ["6:30", "7:00", "7:30", "8:00", "9:00", "16:00", "19:00"], "location": {"lat": 52.2297381, "lon": 21.0236910367329}, "address": "ul. Ksi\u0105\u017c\u0119ca 21, 00-498 Warszawa", "id": "article-9558"}, {"name": "Warszawa. \u015aw. Andrzeja Aposto\u0142a na Mirowie", "sundays": ["7:00", "8:30", "10:00", "11:30", "13:00", "18:00"], "weekdays": ["6:30", "8:00", "9:00", "18:00"], "location": {"lat": 52.23740295, "lon": 20.9928740088945}, "address": "ul. Ch\u0142odna 9, 00-891 Warszawa", "id": "article-9559"}, {"name": "Warszawa. \u015aw. Andrzeja Boboli na Mokotowie \u2013 Sanktuarium", "sundays": ["7:00", "8:30", "9:30", "10:00", "10:45", "10:45", "11:30", "12:45", "13:00", "17:00", "19:30", "21:00"], "weekdays": ["7:00", "7:30", "8:00", "8:30", "9:00", "12:00", "17:00", "19:00"], "location": {"lat": 52.205716, "lon": 21.0008583299436}, "address": "ul. Rakowiecka 61, 02-532 Warszawa", "id": "article-9560"}, {"name": "Warszawa. \u015aw. Anny w Wilanowie", "sundays": ["7:00", "8:30", "10:00", "11:30", "13:00", "18:00", "20:00"], "weekdays": ["7:00", "12:00", "17:00", "18:00"], "location": {"lat": 0, "lon": 0}, "address": "Kolegiacka 1, Wilan\u00f3w 02-946", "id": "article-9561"}, {"name": "Warszawa. \u015aw. Antoniego Marii Zaccarii na Stegnach", "sundays": ["7:00", "9:00", "11:00", "12:30", "17:00", "19:00"], "weekdays": ["7:00", "8:00", "12:00", "18:00"], "location": {"lat": 52.1744763, "lon": 21.0620168469886}, "address": "ul. Jana III Sobieskiego 15, 02-930 Warszawa", "id": "article-9564"}, {"name": "Warszawa. \u015aw. Antoniego z Padwy w \u015ar\u00f3dmie\u015bciu", "sundays": ["7:00", "8:00", "9:30", "11:00", "12:30", "18:00"], "weekdays": ["6:30", "7:00", "8:00", "18:00"], "location": {"lat": 52.2427534, "lon": 21.0065467647215}, "address": "ul. Senatorska 31, 00-099 Warszawa", "id": "article-9563"}, {"name": "Warszawa. \u015aw. Augustyna na Muranowie", "sundays": ["7:00", "8:30", "10:00", "11:30", "13:00", "18:30", "19:45"], "weekdays": ["7:00", "8:00", "9:00", "18:30"], "location": {"lat": 52.24449815, "lon": 20.9886824845405}, "address": "ul. Nowolipki 18, 01-019 Warszawa", "id": "article-9565"}, {"name": "Warszawa. \u015aw. Barbary w \u015ar\u00f3dmie\u015bciu na Koszykach", "sundays": ["7:00", "8:30", "10:00", "11:30", "13:00", "19:00"], "weekdays": ["6:30", "7:30", "8:00", "15:00", "18:00"], "location": {"lat": 52.2272351, "lon": 21.0068489109581}, "address": "ul. Nowogrodzka 51, 00-695 Warszawa", "id": "article-9566"}, {"name": "Warszawa. \u015aw. Bonifacego na Czerniakowie", "sundays": ["7:00", "8:30", "10:00", "11:30", "13:00", "18:00", "19:00"], "weekdays": ["6:30", "8:00", "18:30"], "location": {"lat": 52.1941431, "lon": 21.0560206505484}, "address": "ul. Czerniakowska 2/4, 00-701 Warszawa", "id": "article-9567"}, {"name": "Warszawa. \u015aw. Dominika na S\u0142u\u017cewie", "sundays": ["7:00", "8:30", "9:30", "11:00", "12:30", "14:00", "17:00", "18:30", "20:15"], "weekdays": ["7:00", "8:00", "12:00", "18:00", "19:30"], "location": {"lat": 52.17550945, "lon": 21.0362508526861}, "address": "ul. Dominika\u0144ska 2, 02-741 Warszawa", "id": "article-9571"}, {"name": "Warszawa. \u015aw. Franciszka z Asy\u017cu na Ok\u0119ciu", "sundays": ["7:00", "8:30", "10:00", "10:00", "11:15", "11:30", "13:00", "16:00", "18:00", "20:00"], "weekdays": ["6:30", "8:00", "17:30", "18:00", "18:30"], "location": {"lat": 52.18961465, "lon": 20.9616738359794}, "address": "ul. Hynka 4a, 02-149 Warszawa", "id": "article-9576"}, {"name": "Warszawa. \u015aw. Jakuba Aposto\u0142a na Ochocie", "sundays": ["7:00", "8:00", "9:00", "10:15", "11:30", "13:00", "17:00", "19:00"], "weekdays": ["6:00", "7:00", "8:00", "9:00", "17:00", "19:00"], "location": {"lat": 52.2194602, "lon": 20.9830082554404}, "address": "ul. Gr\u00f3jecka 38, 02-314 Warszawa", "id": "article-9579"}, {"name": "Warszawa. \u015aw. Jana Aposto\u0142a i Ewangelisty w Go\u0142\u0105bkach", "sundays": ["7:30", "9:00", "10:30", "12:00", "18:00"], "weekdays": ["7:00", "18:00"], "location": {"lat": 52.2028802, "lon": 20.8640350762858}, "address": "ul. Boles\u0142awa \u015amia\u0142ego 13, 02-496 Warszawa", "id": "article-9580"}, {"name": "Warszawa. \u015aw. Jana Kantego w Sadach \u017boliborskich", "sundays": ["7:00", "8:00", "9:00", "10:00", "11:00", "12:00", "13:00", "14:00", "18:30"], "weekdays": ["6:30", "7:00", "7:30", "8:00", "18:30"], "location": {"lat": 52.2659248, "lon": 20.9763128588759}, "address": "ul. Krasi\u0144skiego 31, 01-784 Warszawa", "id": "article-9582"}, {"name": "Warszawa. \u015aw. Jana Paw\u0142a II", "sundays": ["8:30", "10:00", "11:30", "13:00", "19:00", "21:00"], "weekdays": ["18:00"], "location": {"lat": 52.2543356, "lon": 20.9312987}, "address": "ul. Obro\u0144c\u00f3w Tobruku 48, 01-494 Warszawa", "id": "article-23413"}, {"name": "Warszawa. \u015aw. J\u00f3zefa Oblubie\u0144ca NMP na Kole", "sundays": ["6:30", "8:00", "9:00", "10:15", "11:30", "13:00", "19:00"], "weekdays": ["6:30", "7:30", "8:00", "15:00", "18:00", "19:00"], "location": {"lat": 52.2447857, "lon": 20.9474085}, "address": "ul. Deotymy 41, 01-441 Warszawa", "id": "article-9584"}, {"name": "Warszawa. \u015aw. J\u00f3zefa Oblubie\u0144ca NMP w Ursusie", "sundays": ["6:30", "8:00", "9:30", "11:00", "11:00", "12:30", "16:00", "18:00"], "weekdays": ["6:30", "7:00", "7:30", "8:00", "18:00"], "location": {"lat": 0, "lon": 0}, "address": "ul. Gen. K. Sosnkowskiego 34, 02-495 Warszawa", "id": "article-9585"}, {"name": "Warszawa. \u015aw. Karola Boromeusza na Pow\u0105zkach", "sundays": ["8:00", "9:30", "11:00", "12:30", "17:30", "20:00"], "weekdays": ["8:00", "17:30"], "location": {"lat": 52.2538661, "lon": 20.9763746}, "address": "ul. Pow\u0105zkowska 14, 01-797 Warszawa", "id": "article-9586"}, {"name": "Warszawa. \u015aw. Katarzyny na S\u0142u\u017cewie", "sundays": ["8:00", "9:30", "11:00", "12:30", "18:00"], "weekdays": ["7:00", "17:30", "18:00"], "location": {"lat": 52.17210825, "lon": 21.0448682216611}, "address": "ul. Fosa 17, 02-768 Warszawa", "id": "article-9587"}, {"name": "Warszawa. \u015aw. Kazimierza na Sielcach", "sundays": ["6:30", "8:00", "9:30", "11:00", "11:00", "12:30", "14:00", "19:00"], "weekdays": ["7:00", "8:00", "18:00"], "location": {"lat": 52.20177735, "lon": 21.0398181153004}, "address": "ul. Che\u0142mska 21a, 00-724 Warszawa", "id": "article-9588"}, {"name": "Warszawa. \u015aw. Klemensa Hofbauera na Woli", "sundays": ["6:30", "8:00", "9:30", "11:00", "12:30", "18:30", "20:00"], "weekdays": ["6:30", "7:30", "8:30", "15:00", "18:30"], "location": {"lat": 52.23427525, "lon": 20.9765705416883}, "address": "ul.Karolkowa 49, 01-203 Warszawa", "id": "article-9589"}, {"name": "Warszawa. \u015aw. \u0141ukasza Ewangelisty na G\u00f3rcach", "sundays": ["7:00", "8:30", "10:00", "11:30", "13:00", "16:00", "18:00", "20:00"], "weekdays": ["7:00", "7:30", "18:00"], "location": {"lat": 52.2398846, "lon": 20.9167275663581}, "address": "ul. G\u00f3rczewska 176, 01-460 Warszawa", "id": "article-9592"}, {"name": "Warszawa. \u015aw. Maksymiliana Kolbego na S\u0142u\u017cewcu", "sundays": ["8:00", "9:30", "11:00", "12:30", "17:30", "19:00"], "weekdays": ["7:00", "10:00", "19:00"], "location": {"lat": 52.1702809, "lon": 21.0062956409336}, "address": "ul. Rzymowskiego 35, 02-697 Warszawa", "id": "article-9597"}, {"name": "Warszawa. \u015aw. Marii Magdaleny na Wawrzyszewie", "sundays": ["7:00", "8:30", "10:00", "11:30", "13:00", "18:00"], "weekdays": ["7:00", "7:30", "17:30", "18:00"], "location": {"lat": 52.28059165, "lon": 20.9293971222732}, "address": "ul. W\u00f3lczy\u0144ska 64, 01-908 Warszawa", "id": "article-9599"}, {"name": "Warszawa. \u015aw. Micha\u0142a Archanio\u0142a na Mokotowie", "sundays": ["7:00", "9:00", "10:30", "10:30", "12:00", "13:00", "18:00", "20:00"], "weekdays": ["6:30", "8:00", "9:00", "18:00", "19:00"], "location": {"lat": 52.19925435, "lon": 21.0251646496335}, "address": "ul. Pu\u0142awska 95, 02-595 Warszawa", "id": "article-9598"}, {"name": "Warszawa. \u015aw. Ojca Pio na Moczydle", "sundays": ["7:30", "9:00", "10:30", "11:45", "13:00", "15:00", "18:30", "20:00"], "weekdays": ["7:00", "8:00", "19:00"], "location": {"lat": 52.130161, "lon": 21.0551936215129}, "address": "ul. Ryba\u0142t\u00f3w 25, 02-886 Warszawa", "id": "article-9604"}, {"name": "Warszawa. \u015aw. Stanis\u0142awa Biskupa i M\u0119czennika na Woli", "sundays": ["7:00", "8:00", "9:30", "11:00", "12:30", "18:00"], "weekdays": ["6:30", "7:30", "18:00"], "location": {"lat": 0, "lon": 0}, "address": "ul. J. Bema 73/75, 01-244 Warszawa", "id": "article-9611"}, {"name": "Warszawa. \u015aw. Stanis\u0142awa Kostki na \u017boliborzu", "sundays": ["7:00", "8:30", "10:00", "11:30", "13:00", "18:00", "21:00"], "weekdays": ["6:30", "7:00", "8:00", "9:00", "15:00", "18:00"], "location": {"lat": 52.26758685, "lon": 20.9839426553631}, "address": "ul. Hozjusza 2, 01-565 Warszawa", "id": "article-9612"}, {"name": "Warszawa. \u015aw. Szczepana na Mokotowie", "sundays": ["7:00", "8:00", "9:30", "11:00", "12:30", "17:00", "18:30", "20:00"], "weekdays": ["7:00", "7:30", "8:00", "18:30"], "location": {"lat": 0, "lon": 0}, "address": "ul. \u015aw. Szczepana 1, 02-568 Warszawa", "id": "article-9614"}, {"name": "Warszawa. \u015aw. Teresy od Dzieci\u0105tka Jezus na Tamce", "sundays": ["7:00", "8:30", "10:00", "11:30", "13:00", "12:00", "18:00"], "weekdays": ["7:00", "8:00", "18:00"], "location": {"lat": 52.23915945, "lon": 21.0293576299373}, "address": "ul. Tamka 4A, 00-349 Warszawa", "id": "article-9616"}, {"name": "Warszawa. \u015aw. Teresy od Dzieci\u0105tka Jezus we W\u0142ochach", "sundays": ["7:30", "9:30", "11:00", "12:30", "18:00"], "weekdays": ["6:30", "7:15", "8:00", "18:00", "7:30", "8:00", "18:00", "19:00"], "location": {"lat": 52.206976, "lon": 20.904556141491}, "address": "ul. Rybnicka 27, 02-405 Warszawa", "id": "article-9617"}, {"name": "Warszawa. \u015aw. Tomasza Aposto\u0142a na Imielinie", "sundays": ["7:30", "9:00", "10:30", "12:00", "13:15", "17:00", "19:00", "20:30"], "weekdays": ["6:30", "7:00", "8:00", "19:00"], "location": {"lat": 52.147192, "lon": 21.0432738}, "address": "ul. Dereniowa 12, 02-776 Warszawa", "id": "article-9618"}, {"name": "Warszawa. \u015aw. Wawrzy\u0144ca na Reducie Wolskiej", "sundays": ["9:00", "11:00", "12:15", "13:30", "17:30"], "weekdays": ["17:30"], "location": {"lat": 52.22703435, "lon": 20.9441991247363}, "address": "ul. Wolska 140a, 01-258 Warszawa", "id": "article-9620"}, {"name": "Warszawa. \u015aw. Wojciecha na Woli", "sundays": ["7:00", "8:30", "10:00", "11:30", "13:00", "19:00"], "weekdays": ["6:30", "7:00", "8:00", "18:00"], "location": {"lat": 52.23334855, "lon": 20.9609286694501}, "address": "ul. Wolska 76, 01-134 Warszawa", "id": "article-9623"}, {"name": "Warszawa. \u015aw. Zofii Barat w Grabowie", "sundays": ["8:00", "9:30", "11:00", "12:30", "17:00"], "weekdays": ["7:00", "17:30", "18:00"], "location": {"lat": 52.14887535, "lon": 21.0147552634165}, "address": "ul. Taneczna 65, 02-829 Warszawa", "id": "article-9627"}, {"name": "Warszawa. \u015aw. Zygmunta na Bielanach", "sundays": ["6:30", "8:00", "9:30", "11:00", "11:00", "12:30", "14:00", "17:30", "19:00"], "weekdays": ["6:30", "8:00", "9:00", "18:00", "19:00"], "location": {"lat": 52.2793101, "lon": 20.9465369328749}, "address": "pl. Konfederacji 55, 01-834 Warszawa", "id": "article-9629"}, {"name": "Warszawa. \u015awi\u0119tego Krzy\u017ca na Trakcie Kr\u00f3lewskim", "sundays": ["6:00", "7:30", "9:00", "10:30", "10:30", "11:45", "12:15", "13:00", "16:00", "19:00", "19:00"], "weekdays": ["6:00", "7:00", "7:30", "8:00", "8:30", "9:00", "16:30", "17:00", "18:00", "19:00"], "location": {"lat": 52.23868775, "lon": 21.0168360180168}, "address": "ul. Krakowskie Przedmie\u015bcie 3, 00-047 Warszawa", "id": "article-9591"}, {"name": "Warszawa. \u015awi\u0119tej Tr\u00f3jcy na Solcu", "sundays": ["7:30", "9:00", "10:30", "10:30", "12:00", "12:00", "18:00", "21:00"], "weekdays": ["7:00", "8:00", "18:00"], "location": {"lat": 52.23161925, "lon": 21.0396127210615}, "address": "ul. Solec 61, 00-424 Warszawa", "id": "article-9619"}, {"name": "Warszawa. \u015awi\u0119tych Aposto\u0142\u00f3w Piotra i Paw\u0142a w Pyrach", "sundays": ["7:30", "9:00", "11:00", "12:30", "18:00"], "weekdays": ["7:30", "18:00"], "location": {"lat": 52.1256589, "lon": 21.0163775}, "address": "ul. Szumi\u0105ca 5, 02 \u2013 847 Warszawa", "id": "article-9603"}, {"name": "Warszawa. Wniebowst\u0105pienia Pa\u0144skiego na Stok\u0142osach", "sundays": ["6:30", "8:00", "9:30", "11:00", "12:30", "14:00", "18:00", "19:30"], "weekdays": ["6:30", "7:00", "7:30", "8:00", "18:00"], "location": {"lat": 52.1581573, "lon": 21.0300224558418}, "address": "al. Komisji Edukacji Narodowej 101, 02-785 Warszawa", "id": "article-9622"}, {"name": "Warszawa. Wszystkich \u015awi\u0119tych w \u015ar\u00f3dmie\u015bciu na Grzybowie", "sundays": ["6:30", "8:00", "9:30", "11:00", "12:30", "18:30"], "weekdays": ["6:30", "7:15", "8:00", "9:00", "17:00", "18:00", "16:30"], "location": {"lat": 52.2351887, "lon": 21.0034871694062}, "address": "Pl. Grzybowski 3/5, 00-115 Warszawa", "id": "article-9624"}, {"name": "Warszawa. Zes\u0142ania Ducha \u015awi\u0119tego na S\u0142odowcu", "sundays": ["7:00", "8:30", "10:00", "11:30", "13:00", "18:00", "20:00"], "weekdays": ["7:00", "7:30", "8:00", "8:30", "17:00", "18:30"], "location": {"lat": 52.2690591, "lon": 20.9569199647066}, "address": "ul. Broniewskiego 44, 01-771 Warszawa", "id": "article-9626"}, {"name": "Werdun. \u015aWI\u0118TEGO DUCHA", "sundays": ["9:00", "11:00"], "weekdays": ["18:00", "16:00"], "location": {"lat": 51.9575917, "lon": 20.7260647}, "address": "Werdun 18, 05-555 Tarczyn", "id": "article-9761"}, {"name": "Wiersze. NIEPOKALANEGO SERCA NMP", "sundays": ["9:00", "12:00"], "weekdays": ["17:00"], "location": {"lat": 0, "lon": 0}, "address": "Wiersze, ul. Armii Krajowej 17, O5-152 Czosn\u00f3w", "id": "article-9762"}, {"name": "Wor\u00f3w. NAJ\u015aWI\u0118TSZEGO SERCA PANA JEZUSA", "sundays": ["9:00", "11:30", "18:00", "17:00"], "weekdays": ["17:00"], "location": {"lat": 51.88093, "lon": 20.8457}, "address": "Wor\u00f3w 7, 05-600 Gr\u00f3jec", "id": "article-9763"}, {"name": "Wrociszew. \u015aw. MA\u0141GORZATY DM", "sundays": ["9:00", "10:30", "12:00"], "weekdays": ["8:00", "8:30"], "location": {"lat": 51.7446995, "lon": 21.0708331}, "address": "Wrociszew 11, 05-660 Warka", "id": "article-9764"}, {"name": "\u017babieniec. \u015aw. JADWIGI KR\u00d3LOWEJ", "sundays": ["9:00", "11:00", "17:00"], "weekdays": ["8:00", "17:00"], "location": {"lat": 0, "lon": 0}, "address": "\u017babieniec, ul. G\u0142\u00f3wna 11, 05-500 Piaseczno", "id": "article-9771"}, {"name": "Zabor\u00f3w. NAWIEDZENIA NMP", "sundays": ["8:00", "10:00", "12:00", "17:00"], "weekdays": ["17:30", "18:00"], "location": {"lat": 50.7589822, "lon": 22.1027523}, "address": "ul. Ko\u015bcielna 1, 05-083 Zabor\u00f3w", "id": "article-9765"}, {"name": "Zalesie Dolne. NMP WSPOMO\u017bENIA WIERNYCH", "sundays": ["7:00", "8:30", "10:00", "11:30", "13:00", "18:00"], "weekdays": ["7:00", "8:00", "18:30"], "location": {"lat": 0, "lon": 0}, "address": "Zalesie Dolne, ul. Modrzewiowa 2, 05-501 Piaseczno", "id": "article-9766"}, {"name": "Zalesie G\u00f3rne. \u015aw. HUBERTA", "sundays": ["9:00", "11:00", "12:30", "18:00"], "weekdays": ["7:15", "18:00"], "location": {"lat": 52.02563885, "lon": 21.0318825040516}, "address": "ul. Bia\u0142ej Brzozy 23, 05-540 Zalesie G\u00f3rne", "id": "article-9767"}, {"name": "ZA\u015aNI\u0118CIA NAJ\u015aWI\u0118TSZEJ BOGURODZICY", "sundays": ["9:00", "12:00"], "weekdays": ["17:00", "18:00"], "location": {"lat": 52.24629, "lon": 20.41421}, "address": "Zawady 21, 05-085 Kampinos", "id": "article-9781"}, {"name": "Zawady. \u015aw. DOROTY DM", "sundays": ["9:00", "10:30", "12:00"], "weekdays": ["18:00", "17:00"], "location": {"lat": 51.75636105, "lon": 20.95833525}, "address": "Zbrosza Du\u017ca 25, 05-604 Jasieniec", "id": "article-9768"}, {"name": "Zbrosza Du\u017ca. \u015aw. JANA CHRZCICIELA", "sundays": ["9:00", "10:30", "12:00", "18:00"], "weekdays": ["18:00"], "location": {"lat": 52.0133167, "lon": 20.9010024}, "address": "ul. Piaseczy\u0144ska 24, 05-504 Z\u0142otok\u0142os", "id": "article-9769"}, {"name": "Z\u0142otok\u0142os. MATKI BO\u017bEJ \u0141ASKAWEJ", "sundays": ["9:00", "11:00", "13:00"], "weekdays": ["8:00", "10:00", "18:00"], "location": {"lat": 0, "lon": 0}, "address": "\u017buk\u00f3w 39, 05-824 K\u0142udzienko", "id": "article-9770"}, {"name": "Zwiastowania Pa\u0144skiego na Rakowcu Po\u0142udniowym", "sundays": ["07:00", "08:30", "09:30", "10:00", "11:00", "11:30", "13:00", "18:30", "20:00"], "weekdays": ["07:00", "08:00", "18:30", "19:15"], "location": {"lat": 52.19532845, "lon": 20.9765458353235}, "address": "ul. Gorlicka 5/7, 02-130 Warszawa", "id": "article-9628"}]